[
  {
    "id": 145,
    "name": "Madayegdeg City",
    "imageUrl": "https://raw.githubusercontent.com/otepshehe/otep/master/hehe.jpg",
    "price": 20,
    "priceCurrency": "PESOS",
    "lat": 16.600191,
    "lng": 120.316639
  },
  {
    "id": 148,
    "name": "Macho temple",
    "imageUrl": "https://raw.githubusercontent.com/otepshehe/otep/master/download.jpg",
    "price": 50,
    "priceCurrency": "PESOS",
    "lat": 16.621205,
    "lng": 120.317499
  },
  {
    "id": 201,
    "name": "uki island",
    "imageUrl": "https://raw.githubusercontent.com/otepshehe/otep/master/IMMUKI-ISLAND.jpg",
    "price": 150,
    "priceCurrency": "PESOS",
    "lat": 16.802881,
    "lng": 120.325512
  },
  {
    "id": 205,
    "name": "Tambay sa bahay nila otep",
    "imageUrl": "https://raw.githubusercontent.com/lewagon/flats-boilerplate/master/images/flat4.jpg",
    "price": 10000,
    "priceCurrency": "PESOS",
    "lat": 16.590576,
    "lng": 120.323370
  },
  {
    "id": 210,
    "name": "Sleep over sa balconahe",
    "imageUrl": "https://raw.githubusercontent.com/lewagon/flats-boilerplate/master/images/flat5.jpg",
    "price": 135,
    "priceCurrency": "PESOS",
    "lat": 16.595116,
    "lng": 120.313172
  },
  {
    "id": 211,
    "name": "Chill sa bahay nila otep",
    "imageUrl": "https://raw.githubusercontent.com/lewagon/flats-boilerplate/master/images/flat6.jpg",
    "price": 90,
    "priceCurrency": "PESOS",
    "lat": 48.827855,
    "lng": 2.350774
  }
]
