[
  {
    "id": 145,
    "name": "Madayegdeg City",
    "imageUrl": "https://raw.githubusercontent.com/otepshehe/otep/master/hehe.jpg",
    "price": 90,
    "priceCurrency": "PESOS",
    "lat": 16.598784,
    "lng": 120.313279
  },
  {
    "id": 148,
    "name": "Macho temple",
    "imageUrl": "https://raw.githubusercontent.com/otepshehe/otep/master/download.jpg",
    "price": 200,
    "priceCurrency": "PESOS",
    "lat": 16.621205,
    "lng": 120.317499
  },
  {
    "id": 201,
    "name": "uki island",
    "imageUrl": "https://raw.githubusercontent.com/otepshehe/otep/master/IMMUKI-ISLAND.jpg",
    "price": 150,
    "priceCurrency": "PESOS",
    "lat": 16.802881,
    "lng": 120.325512
  },
  {
    "id": 205,
    "name": "Splendide terrasse vue imprenable",
    "imageUrl": "https://raw.githubusercontent.com/lewagon/flats-boilerplate/master/images/flat4.jpg",
    "price": 115,
    "priceCurrency": "PESOS",
    "lat": 48.881840,
    "lng": 2.343371
  },
  {
    "id": 210,
    "name": "Superbe vue à 2 min du Sacré Coeur",
    "imageUrl": "https://raw.githubusercontent.com/lewagon/flats-boilerplate/master/images/flat5.jpg",
    "price": 135,
    "priceCurrency": "PESOS",
    "lat": 48.888839,
    "lng": 2.339208
  },
  {
    "id": 211,
    "name": "Bohemian and Chic in Paris",
    "imageUrl": "https://raw.githubusercontent.com/lewagon/flats-boilerplate/master/images/flat6.jpg",
    "price": 90,
    "priceCurrency": "PESOS",
    "lat": 48.827855,
    "lng": 2.350774
  }
]
