[
  {
    "id": 145,
    "name": "Madayegdeg City",
    "imageUrl": "https://raw.githubusercontent.com/otepshehe/otep/master/hehe.jpg",
    "price": 20,
    "priceCurrency": "PESOS",
    "lat": 16.600191,
    "lng": 120.316639
  },
  {
    "id": 148,
    "name": "eiffel tower",
    "imageUrl": "https://raw.githubusercontent.com/otepshehe/otep/master/paris-photo-699466.jpeg",
    "price": 1000,
    "priceCurrency": "PESOS",
    "lat": 48.858370,
    "lng": 2.294481
  },
  {
    "id": 201,
    "name": "Greatwall of china",
    "imageUrl": "https://raw.githubusercontent.com/otepshehe/otep/master/1200px-The_Great_Wall_of_China_at_Jinshanling-edit.jpg",
    "price": 3000,
    "priceCurrency": "PESOS",
    "lat": 40.434772,
    "lng": 116.566097
  },
  {
    "id": 205,
    "name": "Tambay sa bahay nila otep",
    "imageUrl": "https://raw.githubusercontent.com/lewagon/flats-boilerplate/master/images/flat4.jpg",
    "price": 10000,
    "priceCurrency": "PESOS",
    "lat": 16.590576,
    "lng": 120.323370
  },
  {
    "id": 210,
    "name": "Sleep over sa balconahe",
    "imageUrl": "https://raw.githubusercontent.com/lewagon/flats-boilerplate/master/images/flat5.jpg",
    "price": 135,
    "priceCurrency": "PESOS",
    "lat": 16.595116,
    "lng": 120.313172
  },
  {
    "id": 211,
    "name": "Chill sa bahay nila otep",
    "imageUrl": "https://raw.githubusercontent.com/lewagon/flats-boilerplate/master/images/flat6.jpg",
    "price": 90,
    "priceCurrency": "PESOS",
    "lat": 48.827855,
    "lng": 2.350774
  }
]
