[
  {
    "id": 145,
    "name": "Madayegdeg City",
    "imageUrl": "https://raw.githubusercontent.com/otepshehe/otep/master/hehe.jpg",
    "price": 20,
    "priceCurrency": "PESOS",
    "lat": 16.600191,
    "lng": 120.316639
  },
  {
    "id": 148,
    "name": "eiffel tower",
    "imageUrl": "https://raw.githubusercontent.com/otepshehe/otep/master/paris-photo-699466.jpeg",
    "price": 1000,
    "priceCurrency": "PESOS",
    "lat": 48.858370,
    "lng": 2.294481
  },
  {
    "id": 201,
    "name": "Greatwall of china",
    "imageUrl": "https://raw.githubusercontent.com/otepshehe/otep/master/1200px-The_Great_Wall_of_China_at_Jinshanling-edit.jpg",
    "price": 3000,
    "priceCurrency": "PESOS",
    "lat": 40.434772,
    "lng": 116.566097
  },
  {
    "id": 205,
    "name": "Venice italy",
    "imageUrl": "https://raw.githubusercontent.com/otepshehe/otep/master/Venice-holidays-Italy-tourist-fines-1014065.jpg",
    "price": 10000,
    "priceCurrency": "PESOS",
    "lat": 45.440847,
    "lng": 12.315515
  },
  {
    "id": 210,
    "name": "Boracay",
    "imageUrl": "https://raw.githubusercontent.com/otepshehe/otep/master/boracay-483535221_super.jpg",
    "price": 12000,
    "priceCurrency": "PESOS",
    "lat": 11.967375,
    "lng": 121.924815
  },
  {
    "id": 211,
    "name": "Banaue rice terraces",
    "imageUrl": "https://raw.githubusercontent.com/otepshehe/otep/master/banawe_2018-06-28_18-33-03.jpg",
    "price": 90,
    "priceCurrency": "PESOS",
    "lat": 16.923954,
    "lng": 121.055640
  }
]
